{"business_id":"6iYb2HFDywm3zjuRg0shjw","name":"Oskar Blues Taproom","address":"921 Pearl St","city":"Boulder","state":"CO","postal_code":"80302","latitude":33.17,"longitude":-84.39,"stars":4.0,"review_count":86,"is_open":1,"attributes":{"RestaurantsTableService":"True","WiFi":"u'free'","BikeParking":"True","BusinessParking":"{'garage': False, 'street': True, 'validated': False, 'lot': False, 'valet': False}","BusinessAcceptsCreditCards":"True","RestaurantsReservations":"False","WheelchairAccessible":"True","Caters":"True","OutdoorSeating":"True","RestaurantsGoodForGroups":"True","HappyHour":"True","BusinessAcceptsBitcoin":"False","RestaurantsPriceRange2":"2","Ambience":"{'touristy': False, 'hipster': False, 'romantic': False, 'divey': False, 'intimate': False, 'trendy': False, 'upscale': False, 'classy': False, 'casual': True}","HasTV":"True","Alcohol":"'beer_and_wine'","GoodForMeal":"{'dessert': False, 'latenight': False, 'lunch': False, 'dinner': False, 'brunch': False, 'breakfast': False}","DogsAllowed":"False","RestaurantsTakeOut":"True","NoiseLevel":"u'average'","RestaurantsAttire":"'casual'","RestaurantsDelivery":"None"},"categories":"Gastropubs, Food, Beer Gardens, Restaurants, Bars, American (Traditional), Beer Bar, Nightlife, Breweries","hours":{"Monday":"11:0-23:0","Tuesday":"11:0-23:0","Wednesday":"11:0-23:0","Thursday":"11:0-23:0","Friday":"11:0-23:0","Saturday":"11:0-23:0","Sunday":"11:0-23:0"}}
{"business_id":"tCbdrRPZA0oiIYSmHG3J0w","name":"Flying Elephants at PDX","address":"7000 NE Airport Way","city":"Portland","state":"OR","postal_code":"97218","latitude":45.5889058992,"longitude":-122.5933307507,"stars":4.0,"review_count":126,"is_open":1,"attributes":{"RestaurantsTakeOut":"True","RestaurantsAttire":"u'casual'","GoodForKids":"True","BikeParking":"False","OutdoorSeating":"False","Ambience":"{'romantic': False, 'intimate': False, 'touristy': False, 'hipster': False, 'divey': False, 'classy': False, 'trendy': False, 'upscale': False, 'casual': True}","Caters":"True","RestaurantsReservations":"False","RestaurantsDelivery":"False","HasTV":"False","RestaurantsGoodForGroups":"False","BusinessAcceptsCreditCards":"True","NoiseLevel":"u'average'","ByAppointmentOnly":"False","RestaurantsPriceRange2":"2","WiFi":"u'free'","BusinessParking":"{'garage': True, 'street': False, 'validated': False, 'lot': False, 'valet': False}","Alcohol":"u'beer_and_wine'","GoodForMeal":"{'dessert': False, 'latenight': False, 'lunch': True, 'dinner': False, 'brunch': False, 'breakfast': True}"},"categories":"Salad, Soup, Sandwiches, Delis, Restaurants, Cafes, Vegetarian","hours":{"Monday":"5:0-18:0","Tuesday":"5:0-17:0","Wednesday":"5:0-18:0","Thursday":"5:0-18:0","Friday":"5:0-18:0","Saturday":"5:0-18:0","Sunday":"5:0-18:0"}}
{"business_id":"bvN78flM8NLprQ1a1y5dRg","name":"Das","address":"4720 Hawthorne Ave","city":"Portland","state":"OR","postal_code":"97214","latitude":33.167027,"longitude":-84.403424,"stars":4.5,"review_count":13,"is_open":1,"attributes":{"BusinessAcceptsCreditCards":"True","RestaurantsPriceRange2":"2","ByAppointmentOnly":"False","BikeParking":"False","BusinessParking":"{'garage': False, 'street': True, 'validated': False, 'lot': False, 'valet': False}"},"categories":"Delivery boy","hours":{"Thursday":"11:0-18:0","Friday":"11:0-18:0","Saturday":"11:0-18:0","Sunday":"11:0-18:0"}}
{"business_id":"oaepsyvc0J17qwi8cfrOWg","name":"Ann mariya","address":"2566 Enterprise Rd","city":"Orange City","state":"FL","postal_code":"32763","latitude":33.1620,"longitude":-84.4112,"stars":3.0,"review_count":8,"is_open":1,"attributes":{"RestaurantsPriceRange2":"1","BusinessAcceptsCreditCards":"True","GoodForKids":"True","ByAppointmentOnly":"False"},"categories":"Customer","hours":null}
{"business_id":"PE9uqAjdw0E4-8mjGl3wVA","name":"Ravi","address":"1046 Memorial Dr SE","city":"Atlanta","state":"GA","postal_code":"30316","latitude":33.157027,"longitude":-84.423424,"stars":4.0,"review_count":14,"is_open":1,"attributes":{"GoodForKids":"False","BusinessParking":"{'garage': False, 'street': False, 'validated': False, 'lot': False, 'valet': False}","BusinessAcceptsCreditCards":"True"},"categories":"Delivery boy","hours":{"Monday":"16:0-19:0","Tuesday":"16:0-19:0","Wednesday":"16:0-19:0","Thursday":"16:0-19:0","Friday":"16:0-19:0","Saturday":"9:0-11:0"}}
{"business_id":"D4JtQNTI4X3KcbzacDJsMw","name":"Bob Likes Thai Food","address":"3755 Main St","city":"Vancouver","state":"BC","postal_code":"V5V","latitude":49.2513423,"longitude":-123.101333,"stars":3.5,"review_count":169,"is_open":1,"attributes":{"GoodForKids":"True","Alcohol":"u'none'","RestaurantsGoodForGroups":"True","RestaurantsReservations":"True","BusinessParking":"{'garage': False, 'street': True, 'validated': False, 'lot': False, 'valet': False}","RestaurantsAttire":"u'casual'","BikeParking":"True","RestaurantsPriceRange2":"2","HasTV":"False","NoiseLevel":"u'average'","WiFi":"u'no'","RestaurantsTakeOut":"True","Caters":"False","OutdoorSeating":"False","Ambience":"{'romantic': False, 'intimate': False, 'classy': False, 'hipster': False, 'divey': False, 'touristy': False, 'trendy': False, 'upscale': False, 'casual': True}","GoodForMeal":"{'dessert': False, 'latenight': False, 'lunch': True, 'dinner': True, 'brunch': False, 'breakfast': False}","DogsAllowed":"False","RestaurantsDelivery":"True"},"categories":"Restaurants, Thai","hours":{"Monday":"17:0-21:0","Tuesday":"17:0-21:0","Wednesday":"17:0-21:0","Thursday":"17:0-21:0","Friday":"17:0-21:0","Saturday":"17:0-21:0","Sunday":"17:0-21:0"}}
{"business_id":"t35jsh9YnMtttm69UCp7gw","name":"Megha Joshi","address":"2511 Edgewater Dr","city":"Orlando","state":"FL","postal_code":"32804","latitude":33.1611,"longitude":-84.41,"stars":4.5,"review_count":7,"is_open":1,"attributes":{"AcceptsInsurance":"True","BusinessAcceptsCreditCards":"True","ByAppointmentOnly":"True"},"categories":"Customer","hours":{"Monday":"0:0-0:0","Tuesday":"8:0-17:30","Wednesday":"8:0-17:30","Thursday":"8:0-17:30","Friday":"8:0-17:30"}}
{"business_id":"jFYIsSb7r1QeESVUnXPHBw","name":"Boxwood Biscuit","address":"740 S High St","city":"Columbus","state":"OH","postal_code":"43206","latitude":39.947006523,"longitude":-82.997471,"stars":4.5,"review_count":11,"is_open":1,"attributes":null,"categories":"Breakfast & Brunch, Restaurants","hours":{"Saturday":"8:0-14:0","Sunday":"8:0-14:0"}}
{"business_id":"tXvdYGvlEceDljN8gt2_3Q","name":"Ratnadeep pal","address":"615 W Slaughter Ln, Ste 113","city":"Austin","state":"TX","postal_code":"78748","latitude":33.01,"longitude":-84.4220,"stars":4.0,"review_count":5,"is_open":0,"attributes":{"BusinessAcceptsCreditCards":"False","RestaurantsPriceRange2":"3","ByAppointmentOnly":"False","BusinessParking":"{'garage': False, 'street': False, 'validated': False, 'lot': False, 'valet': False}"},"categories":"Customer","hours":{"Monday":"9:0-17:0","Tuesday":"9:0-19:0","Wednesday":"9:0-19:0","Thursday":"9:0-19:0","Friday":"9:0-19:0","Saturday":"9:0-16:0"}}
{"business_id":"rYs_1pNB_RMtn5WQh55QDA","name":"Vidhya","address":"100 Clematis Dr","city":"Boulder","state":"CO","postal_code":"80302","latitude":33.11,"longitude":-84.4120,"stars":3.5,"review_count":5,"is_open":1,"attributes":{"BikeParking":"True","RestaurantsTakeOut":"True","BusinessParking":"{'garage': False, 'street': True, 'validated': False, 'lot': False, 'valet': False}","WheelchairAccessible":"True","DogsAllowed":"True","RestaurantsDelivery":"False","BusinessAcceptsBitcoin":"False","Caters":"False","BusinessAcceptsCreditCards":"True"},"categories":"Customer","hours":{"Monday":"8:0-20:0","Tuesday":"8:0-20:0","Wednesday":"8:0-20:0","Thursday":"8:0-20:0","Friday":"8:0-20:0","Saturday":"8:0-20:0","Sunday":"8:0-20:0"}}
{"business_id":"hCABMnKtwo4Y9alQDxh2kw","name":"Sadheesh","address":"124 Newbury St, Unit C","city":"Peabody","state":"MA","postal_code":"01960","latitude":33.12,"longitude":-84.4180,"stars":4.0,"review_count":8,"is_open":1,"attributes":{"RestaurantsPriceRange2":"2","BusinessParking":"{'garage': False, 'street': False, 'validated': False, 'lot': True, 'valet': False}","WheelchairAccessible":"True","ByAppointmentOnly":"False","DogsAllowed":"False","BusinessAcceptsCreditCards":"True","GoodForKids":"True","BikeParking":"True","HairSpecializesIn":"{'straightperms': True, 'coloring': True, 'extensions': True, 'africanamerican': True, 'curly': True, 'kids': True, 'perms': True, 'asian': True}","WiFi":"u'free'"},"categories":"Customer","hours":{"Monday":"10:0-15:0","Tuesday":"9:0-18:0","Wednesday":"9:0-18:0","Thursday":"9:0-18:0","Friday":"9:0-18:0","Saturday":"7:0-16:0"}}
{"business_id":"HPA_qyMEddpAEtFof02ixg","name":"Mr G's Pizza & Subs","address":"474 Lowell St","city":"Peabody","state":"MA","postal_code":"01960","latitude":42.541155,"longitude":-70.973438,"stars":4.0,"review_count":39,"is_open":1,"attributes":{"RestaurantsGoodForGroups":"True","HasTV":"True","GoodForKids":"True","RestaurantsTakeOut":"True","RestaurantsPriceRange2":"2","Ambience":"{'romantic': False, 'intimate': False, 'classy': False, 'hipster': False, 'divey': False, 'touristy': False, 'trendy': False, 'upscale': False, 'casual': True}","BikeParking":"True","RestaurantsReservations":"False","BusinessParking":"{'garage': False, 'street': False, 'validated': False, 'lot': True, 'valet': False}","RestaurantsTableService":"False","RestaurantsAttire":"u'casual'","RestaurantsDelivery":"True","OutdoorSeating":"True","DogsAllowed":"True","NoiseLevel":"'average'","Alcohol":"u'none'","BusinessAcceptsCreditCards":"True","Caters":"True","WheelchairAccessible":"True","WiFi":"u'free'","BusinessAcceptsBitcoin":"False"},"categories":"Food, Pizza, Restaurants","hours":{"Monday":"11:0-21:0","Tuesday":"11:0-21:0","Wednesday":"11:0-21:0","Thursday":"11:0-21:0","Friday":"11:0-22:0","Saturday":"11:0-22:0"}}
{"business_id":"ufCxltuh56FF4-ZFZ6cVhg","name":"Sister Honey's","address":"247 E Michigan St","city":"Orlando","state":"FL","postal_code":"32806","latitude":28.5132647,"longitude":-81.3747072,"stars":4.5,"review_count":135,"is_open":1,"attributes":{"BusinessParking":"{'garage': False, 'street': False, 'validated': False, 'lot': True, 'valet': False}","RestaurantsDelivery":"False","BusinessAcceptsCreditCards":"True","RestaurantsPriceRange2":"1","DogsAllowed":"False","NoiseLevel":"u'quiet'","RestaurantsTakeOut":"True","Caters":"True","BikeParking":"True"},"categories":"Restaurants, American (New), Bakeries, Desserts, Food, Cupcakes","hours":{"Tuesday":"11:0-18:0","Wednesday":"11:0-18:0","Thursday":"11:0-18:0","Friday":"11:0-18:0","Saturday":"11:0-18:0"}}
{"business_id":"i_t_30RYVUDdZzFIcw80NQ","name":"Sumar","address":"225 E Main St","city":"Columbus","state":"OH","postal_code":"43215","latitude":33.19,"longitude":-84.4201,"stars":4.0,"review_count":5,"is_open":0,"attributes":{"BusinessParking":"{'garage': False, 'street': True, 'validated': False, 'lot': False, 'valet': False}","BusinessAcceptsCreditCards":"True","ByAppointmentOnly":"False","BikeParking":"True","RestaurantsPriceRange2":"2"},"categories":"Customer","hours":{"Tuesday":"9:0-17:30","Wednesday":"9:0-17:30","Thursday":"9:0-17:30","Friday":"9:0-17:30","Saturday":"9:0-17:30"}}
{"business_id":"GfWJ19Js7wX9rwaHQ7KbGw","name":"Everything POP Shopping & Dining","address":"1050 Century Dr","city":"Orlando","state":"FL","postal_code":"32830","latitude":28.3504984,"longitude":-81.542819,"stars":3.0,"review_count":7,"is_open":1,"attributes":{"HasTV":"False","Caters":"False","BusinessParking":"{'garage': False, 'street': False, 'validated': False, 'lot': False, 'valet': False}","BusinessAcceptsCreditCards":"True","RestaurantsPriceRange2":"2","BikeParking":"True","RestaurantsAttire":"u'casual'","WiFi":"u'free'","RestaurantsGoodForGroups":"True","RestaurantsReservations":"False","GoodForKids":"True","RestaurantsTakeOut":"None","RestaurantsDelivery":"None"},"categories":"Restaurants, American (New), Food Court, Flowers & Gifts, Hotels & Travel, Gift Shops, Resorts, Shopping","hours":{"Monday":"0:0-0:0","Tuesday":"7:0-22:0","Wednesday":"7:0-22:0","Thursday":"7:0-22:0","Friday":"7:0-22:0","Saturday":"7:0-22:0","Sunday":"7:0-22:0"}}
{"business_id":"MUeUyqhMja-nnmvgP4rBBg","name":"Saratoga","address":"4787 W Irlo Bronson Hwy","city":"Kissimmee","state":"FL","postal_code":"34746","latitude":33.25,"longitude":-84.4150,"stars":3.5,"review_count":55,"is_open":0,"attributes":{"WiFi":"'free'","RestaurantsPriceRange2":"2","BusinessAcceptsCreditCards":"True","DogsAllowed":"True"},"categories":"Customer","hours":{"Monday":"0:0-0:0","Tuesday":"0:0-0:0","Wednesday":"0:0-0:0","Thursday":"0:0-0:0","Friday":"0:0-0:0","Saturday":"0:0-0:0","Sunday":"0:0-0:0"}}
